[
    {
        "insertedAtTimestamp": "2023-10-12T12:21:28.570974",
        "Business_ID": "x0k5kFArHLijdY8-NEQ7Xg",
        "Name": "Bengal Tiger Indian Food",
        "Address": "58 W 56th St, Fl 2, New York, NY 10019",
        "Latitude": 40.763167,
        "Longitude": -73.977131,
        "No_of_reviews": 2326,
        "Rating": 4.5,
        "Phone": "+12122652703",
        "Zip_code": "10019",
        "Cuisine": "indpak"
    },
    {
        "insertedAtTimestamp": "2023-10-12T12:21:28.570974",
        "Business_ID": "1_pK5aQ47atF50oAKHADhA",
        "Name": "Indian Accent",
        "Address": "123 W 56th St, New York, NY 10019",
        "Latitude": 40.7643344624229,
        "Longitude": -73.9787312885132,
        "No_of_reviews": 716,
        "Rating": 4.5,
        "Phone": "+12128428070",
        "Zip_code": "10019",
        "Cuisine": "indpak"
    },
    {
        "insertedAtTimestamp": "2023-10-12T12:21:28.571974",
        "Business_ID": "A-ert0jDRBfku9ogyW_mEg",
        "Name": "Spice Symphony",
        "Address": "150 E 50th St, New York, NY 10022",
        "Latitude": 40.7558937072754,
        "Longitude": -73.9715347290039,
        "No_of_reviews": 654,
        "Rating": 4.5,
        "Phone": "+12123004869",
        "Zip_code": "10022",
        "Cuisine": "indpak"
    },
    {
        "insertedAtTimestamp": "2023-10-12T12:21:28.571974",
        "Business_ID": "m5Whyz8O8jM4DrE808h71g",
        "Name": "Darbar Grill",
        "Address": "157 E 55th St, New York, NY 10022",
        "Latitude": 40.759357,
        "Longitude": -73.968826,
        "No_of_reviews": 588,
        "Rating": 4.0,
        "Phone": "+12127514600",
        "Zip_code": "10022",
        "Cuisine": "indpak"
    },
    {
        "insertedAtTimestamp": "2023-10-12T12:21:28.571974",
        "Business_ID": "ut-560tVcs2g-ZU0Y_qqHQ",
        "Name": "Saar Indian Bistro",
        "Address": "241 W 51st St, New York, NY 10019",
        "Latitude": 40.7626659,
        "Longitude": -73.9847093,
        "No_of_reviews": 396,
        "Rating": 4.5,
        "Phone": "+16466092142",
        "Zip_code": "10019",
        "Cuisine": "indpak"
    },
    {
        "insertedAtTimestamp": "2023-10-12T12:21:28.571974",
        "Business_ID": "qhXIW0LDT4XsoN2IE6dZHg",
        "Name": "Ahimsa",
        "Address": "204 E 38th St, New York, NY 10016",
        "Latitude": 40.7478959,
        "Longitude": -73.9758638,
        "No_of_reviews": 218,
        "Rating": 4.5,
        "Phone": "+12122282022",
        "Zip_code": "10016",
        "Cuisine": "indpak"
    },
    {
        "insertedAtTimestamp": "2023-10-12T12:21:28.572965",
        "Business_ID": "UtknyDJ_DPut-FKRqs0wpQ",
        "Name": "Royal Grill Halal Food",
        "Address": "44TH St And 6th Ave, New York, NY 10018",
        "Latitude": 40.75621073292354,
        "Longitude": -73.98334948251191,
        "No_of_reviews": 548,
        "Rating": 4.5,
        "Phone": "+13477240504",
        "Zip_code": "10018",
        "Cuisine": "indpak"
    },
    {
        "insertedAtTimestamp": "2023-10-12T12:21:28.572965",
        "Business_ID": "QqrEF8_ZQCGi63cL10J5oA",
        "Name": "Chola",
        "Address": "232 E 58th St, New York, NY 10022",
        "Latitude": 40.76016,
        "Longitude": -73.96582,
        "No_of_reviews": 676,
        "Rating": 4.0,
        "Phone": "+12126884619",
        "Zip_code": "10022",
        "Cuisine": "indpak"
    },
    {
        "insertedAtTimestamp": "2023-10-12T12:21:28.572965",
        "Business_ID": "ZikqL-flwV2XYlKtL2UfmA",
        "Name": "Rangoli Exquisite Indian Cuisine",
        "Address": "1393 A 2nd Ave, New York, NY 10021",
        "Latitude": 40.7693,
        "Longitude": -73.95823,
        "No_of_reviews": 513,
        "Rating": 4.5,
        "Phone": "+12126283800",
        "Zip_code": "10021",
        "Cuisine": "indpak"
    },
    {
        "insertedAtTimestamp": "2023-10-12T12:21:28.572965",
        "Business_ID": "50eKjWOB-H9iuo1ocACOaQ",
        "Name": "Imli Urban Indian Food",
        "Address": "1136 1st Ave, New York, NY 10065",
        "Latitude": 40.7616660604253,
        "Longitude": -73.9601389691234,
        "No_of_reviews": 256,
        "Rating": 4.5,
        "Phone": "+12122560073",
        "Zip_code": "10065",
        "Cuisine": "indpak"
    },
    {
        "insertedAtTimestamp": "2023-10-12T12:21:28.573965",
        "Business_ID": "9pMhRYYgV7E9L7pzECtJKA",
        "Name": "The Drunken Munkey - UES",
        "Address": "338 E 92nd St, New York, NY 10128",
        "Latitude": 40.78098,
        "Longitude": -73.94751,
        "No_of_reviews": 1351,
        "Rating": 4.5,
        "Phone": "+16468468986",
        "Zip_code": "10128",
        "Cuisine": "indpak"
    },
    {
        "insertedAtTimestamp": "2023-10-12T12:21:28.573965",
        "Business_ID": "t6PzD4uzBOfyCLcd_lT8cQ",
        "Name": "Sathi",
        "Address": "216 3rd Ave, New York, NY 10003",
        "Latitude": 40.73621,
        "Longitude": -73.98528,
        "No_of_reviews": 295,
        "Rating": 4.5,
        "Phone": "+12122603700",
        "Zip_code": "10003",
        "Cuisine": "indpak"
    },
    {
        "insertedAtTimestamp": "2023-10-12T12:21:28.573965",
        "Business_ID": "z2VXX7wGl8XZ6_oo9W3koA",
        "Name": "Patiala Indian Grill",
        "Address": "371 W 34th St, New York, NY 10001",
        "Latitude": 40.7534700430117,
        "Longitude": -73.99595067259492,
        "No_of_reviews": 624,
        "Rating": 4.5,
        "Phone": "+12125648255",
        "Zip_code": "10001",
        "Cuisine": "indpak"
    },
    {
        "insertedAtTimestamp": "2023-10-12T12:21:28.573965",
        "Business_ID": "HEs6llkn3wIP1ATXeIZQew",
        "Name": "Pippali",
        "Address": "129 E 27th St, New York, NY 10016",
        "Latitude": 40.74233,
        "Longitude": -73.98331,
        "No_of_reviews": 896,
        "Rating": 4.0,
        "Phone": "+12126891999",
        "Zip_code": "10016",
        "Cuisine": "indpak"
    },
    {
        "insertedAtTimestamp": "2023-10-12T12:21:28.574966",
        "Business_ID": "xWVHj2XNcxEg79Nkb5Zb6Q",
        "Name": "Semma",
        "Address": "60 Greenwich Ave, New York, NY 10011",
        "Latitude": 40.736054206102615,
        "Longitude": -74.0005639,
        "No_of_reviews": 349,
        "Rating": 4.0,
        "Phone": "+12123738900",
        "Zip_code": "10011",
        "Cuisine": "indpak"
    },
    {
        "insertedAtTimestamp": "2023-10-12T12:21:28.574966",
        "Business_ID": "IU6pOHR8Re8kvSn0mzhPHg",
        "Name": "Jaz Indian Cuisine",
        "Address": "813 Ninth Ave, New York, NY 10019",
        "Latitude": 40.7659,
        "Longitude": -73.98741,
        "No_of_reviews": 151,
        "Rating": 4.5,
        "Phone": "+19176757440",
        "Zip_code": "10019",
        "Cuisine": "indpak"
    },
    {
        "insertedAtTimestamp": "2023-10-12T12:21:28.574966",
        "Business_ID": "7USPKYeaAfxl0Ch9j_1l7A",
        "Name": "Moti Mahal Delux",
        "Address": "1149 1st Ave, New York, NY 10065",
        "Latitude": 40.76213,
        "Longitude": -73.9605,
        "No_of_reviews": 565,
        "Rating": 4.0,
        "Phone": "+12123713535",
        "Zip_code": "10065",
        "Cuisine": "indpak"
    },
    {
        "insertedAtTimestamp": "2023-10-12T12:21:28.574966",
        "Business_ID": "_nScWpFX3M1K7s30hFEsRw",
        "Name": "INDAY",
        "Address": "1133 Broadway, New York, NY 10010",
        "Latitude": 40.7434986,
        "Longitude": -73.9892206,
        "No_of_reviews": 411,
        "Rating": 4.0,
        "Phone": "+19175215012",
        "Zip_code": "10010",
        "Cuisine": "indpak"
    },
    {
        "insertedAtTimestamp": "2023-10-12T12:21:28.575966",
        "Business_ID": "jf3JRaxUYU93x8LFU-8gkA",
        "Name": "GupShup",
        "Address": "115 E18th St, New York, NY 10003",
        "Latitude": 40.7368323318866,
        "Longitude": -73.9877132715179,
        "No_of_reviews": 687,
        "Rating": 4.0,
        "Phone": "+12125187313",
        "Zip_code": "10003",
        "Cuisine": "indpak"
    },
    {
        "insertedAtTimestamp": "2023-10-12T12:21:28.575966",
        "Business_ID": "DZE4ThXa7d0kSXnR3Hb-kg",
        "Name": "Junoon",
        "Address": "19 W 24th St, New York, NY 10010",
        "Latitude": 40.74299,
        "Longitude": -73.990462,
        "No_of_reviews": 1755,
        "Rating": 3.5,
        "Phone": "+12124902100",
        "Zip_code": "10010",
        "Cuisine": "indpak"
    },
    {
        "insertedAtTimestamp": "2023-10-12T12:21:28.576967",
        "Business_ID": "w2-VGvlBCMYo9ko8Y_PzAw",
        "Name": "Masala King",
        "Address": "64 E 34th St, New York, NY 10016",
        "Latitude": 40.747176,
        "Longitude": -73.981957,
        "No_of_reviews": 282,
        "Rating": 4.0,
        "Phone": "+16467670230",
        "Zip_code": "10016",
        "Cuisine": "indpak"
    },
    {
        "insertedAtTimestamp": "2023-10-12T12:21:28.576967",
        "Business_ID": "3uEkZEAp7biQEtt0S7W1Vg",
        "Name": "Vatan Indian Vegetarian",
        "Address": "409 3rd Ave, New York, NY 10016",
        "Latitude": 40.74236,
        "Longitude": -73.9803699,
        "No_of_reviews": 877,
        "Rating": 4.0,
        "Phone": "+12126895666",
        "Zip_code": "10016",
        "Cuisine": "indpak"
    },
    {
        "insertedAtTimestamp": "2023-10-12T12:21:28.577970",
        "Business_ID": "XLEdQl5s1bO5Iu43W_c96Q",
        "Name": "Muna",
        "Address": "152 East 46th St, New York, NY 10017",
        "Latitude": 40.753509,
        "Longitude": -73.973515,
        "No_of_reviews": 38,
        "Rating": 4.5,
        "Phone": "+16463987960",
        "Zip_code": "10017",
        "Cuisine": "indpak"
    },
    {
        "insertedAtTimestamp": "2023-10-12T12:21:28.577970",
        "Business_ID": "VC1udoc_sbHdFaBr0-bMsA",
        "Name": "Bombay Chowk",
        "Address": "1378 1st Ave, New York, NY 10021",
        "Latitude": 40.76873,
        "Longitude": -73.9549,
        "No_of_reviews": 175,
        "Rating": 4.0,
        "Phone": "+12122494111",
        "Zip_code": "10021",
        "Cuisine": "indpak"
    },
    {
        "insertedAtTimestamp": "2023-10-12T12:21:28.577970",
        "Business_ID": "ECUTH1VOWxZ9GwfzblMKzA",
        "Name": "Mughlai Indian Cuisine",
        "Address": "255 W 55th St, New York, NY 10019",
        "Latitude": 40.765394,
        "Longitude": -73.983272,
        "No_of_reviews": 177,
        "Rating": 4.5,
        "Phone": "+16468700555",
        "Zip_code": "10019",
        "Cuisine": "indpak"
    },
    {
        "insertedAtTimestamp": "2023-10-12T12:21:28.578967",
        "Business_ID": "m9Q9x-Hcxp24gZCaTTJY-A",
        "Name": "Sahib",
        "Address": "104 Lexington Ave, New York, NY 10016",
        "Latitude": 40.74232,
        "Longitude": -73.9830099,
        "No_of_reviews": 300,
        "Rating": 4.0,
        "Phone": "+16465900994",
        "Zip_code": "10016",
        "Cuisine": "indpak"
    },
    {
        "insertedAtTimestamp": "2023-10-12T12:21:28.578967",
        "Business_ID": "Va_mnsEvBghHXvc7uZIWJQ",
        "Name": "Spice Symphony",
        "Address": "182 Lexington Ave, New York, NY 10016",
        "Latitude": 40.744722,
        "Longitude": -73.981202,
        "No_of_reviews": 675,
        "Rating": 4.0,
        "Phone": "+12125457742",
        "Zip_code": "10016",
        "Cuisine": "indpak"
    },
    {
        "insertedAtTimestamp": "2023-10-12T12:21:28.578967",
        "Business_ID": "FXDMFBM-rV2s5MHzA33d2g",
        "Name": "Bombay Grill House",
        "Address": "764 9th Ave, New York, NY 10019",
        "Latitude": 40.76421,
        "Longitude": -73.988101,
        "No_of_reviews": 325,
        "Rating": 4.0,
        "Phone": "+12129771010",
        "Zip_code": "10019",
        "Cuisine": "indpak"
    },
    {
        "insertedAtTimestamp": "2023-10-12T12:21:28.579968",
        "Business_ID": "NVMdf02l1GuzzDb7ESI_qQ",
        "Name": "Taste From Everest",
        "Address": "102 Lexington Ave, New York, NY 10016",
        "Latitude": 40.7422712,
        "Longitude": -73.9830327,
        "No_of_reviews": 107,
        "Rating": 4.5,
        "Phone": "+16466093006",
        "Zip_code": "10016",
        "Cuisine": "indpak"
    },
    {
        "insertedAtTimestamp": "2023-10-12T12:21:28.579968",
        "Business_ID": "5UowQyu8tSljomOP-VL7NA",
        "Name": "Tribhaanga",
        "Address": "234 W 56th St, Fl 1, New York, NY 10019",
        "Latitude": 40.765496,
        "Longitude": -73.982754,
        "No_of_reviews": 61,
        "Rating": 4.5,
        "Phone": "+12125862403",
        "Zip_code": "10019",
        "Cuisine": "indpak"
    },
    {
        "insertedAtTimestamp": "2023-10-12T12:21:28.579968",
        "Business_ID": "izRJeBfDQYJmd6ibIQ6Mfg",
        "Name": "Mughlai Indian Cuisine",
        "Address": "1724 2nd Ave, New York, NY 10128",
        "Latitude": 40.78002,
        "Longitude": -73.94978,
        "No_of_reviews": 623,
        "Rating": 4.5,
        "Phone": "+12127226262",
        "Zip_code": "10128",
        "Cuisine": "indpak"
    },
    {
        "insertedAtTimestamp": "2023-10-12T12:21:28.579968",
        "Business_ID": "u_CnSp9FieAuWqhvCn-A2A",
        "Name": "Spice Mantra",
        "Address": "1047 2nd Ave, New York, NY 10022",
        "Latitude": 40.75825,
        "Longitude": -73.96633,
        "No_of_reviews": 81,
        "Rating": 4.5,
        "Phone": "+12125729900",
        "Zip_code": "10022",
        "Cuisine": "indpak"
    },
    {
        "insertedAtTimestamp": "2023-10-12T12:21:28.580967",
        "Business_ID": "XKy4Cy4uNgO7rxhH4yFJQQ",
        "Name": "Mughlai Indian Cuisine",
        "Address": "329 3rd Ave, New York, NY 10010",
        "Latitude": 40.7397599,
        "Longitude": -73.98226,
        "No_of_reviews": 462,
        "Rating": 4.0,
        "Phone": "+12128890909",
        "Zip_code": "10010",
        "Cuisine": "indpak"
    },
    {
        "insertedAtTimestamp": "2023-10-12T12:21:28.580967",
        "Business_ID": "dOQjniOt57mI9l9CmrCSJQ",
        "Name": "Curry India",
        "Address": "148 W 49th St, New York, NY 10019",
        "Latitude": 40.76006,
        "Longitude": -73.98306,
        "No_of_reviews": 194,
        "Rating": 4.0,
        "Phone": "+19172614902",
        "Zip_code": "10019",
        "Cuisine": "indpak"
    },
    {
        "insertedAtTimestamp": "2023-10-12T12:21:28.580967",
        "Business_ID": "yx8cpBwPttpdBvm4V1EawQ",
        "Name": "Joy Curry & Tandoor",
        "Address": "148 E 46th St, New York, NY 10017",
        "Latitude": 40.75352,
        "Longitude": -73.9736117202377,
        "No_of_reviews": 238,
        "Rating": 4.0,
        "Phone": "+12124901277",
        "Zip_code": "10017",
        "Cuisine": "indpak"
    },
    {
        "insertedAtTimestamp": "2023-10-12T12:21:28.581971",
        "Business_ID": "Y8ZCMr7vNMspTjEi6VWgxA",
        "Name": "Taco Mahal",
        "Address": "653 9th Ave, New York, NY 10036",
        "Latitude": 40.76091684980952,
        "Longitude": -73.9912468,
        "No_of_reviews": 132,
        "Rating": 4.0,
        "Phone": "+16464905782",
        "Zip_code": "10036",
        "Cuisine": "indpak"
    },
    {
        "insertedAtTimestamp": "2023-10-12T12:21:28.581971",
        "Business_ID": "9x95RpLEIDRWG2Y9w4qz4Q",
        "Name": "INDAY",
        "Address": "708 3rd Ave, 44th Street, New York, NY 10017",
        "Latitude": 40.75233,
        "Longitude": -73.97353,
        "No_of_reviews": 138,
        "Rating": 4.0,
        "Phone": "+19175215012",
        "Zip_code": "10017",
        "Cuisine": "indpak"
    },
    {
        "insertedAtTimestamp": "2023-10-12T12:21:28.582974",
        "Business_ID": "zVLG_O3AQnvQ53PSJ5mTMA",
        "Name": "Om",
        "Address": "1531 York Ave, New York, NY 10028",
        "Latitude": 40.7726799,
        "Longitude": -73.9497983,
        "No_of_reviews": 548,
        "Rating": 4.0,
        "Phone": "+12126284500",
        "Zip_code": "10028",
        "Cuisine": "indpak"
    },
    {
        "insertedAtTimestamp": "2023-10-12T12:21:28.582974",
        "Business_ID": "sCHiXF4mZcsiY8_cBHNiqw",
        "Name": "deep indian kitchen - indikitch",
        "Address": "25 W 23rd St, New York, NY 10010",
        "Latitude": 40.7422142028809,
        "Longitude": -73.9904403686523,
        "No_of_reviews": 747,
        "Rating": 4.0,
        "Phone": "+16465907152",
        "Zip_code": "10010",
        "Cuisine": "indpak"
    },
    {
        "insertedAtTimestamp": "2023-10-12T12:21:28.582974",
        "Business_ID": "gWuHmSQ8G5FiKv-rEogwvA",
        "Name": "Pongal",
        "Address": "110 Lexington Ave, New York, NY 10016",
        "Latitude": 40.74246,
        "Longitude": -73.9829,
        "No_of_reviews": 566,
        "Rating": 4.0,
        "Phone": "+12126969458",
        "Zip_code": "10016",
        "Cuisine": "indpak"
    },
    {
        "insertedAtTimestamp": "2023-10-12T12:21:28.583969",
        "Business_ID": "DOdbSGm9ULZlVz-1-Jjhmg",
        "Name": "Chote Nawab",
        "Address": "115 Lexington Ave, New York, NY 10016",
        "Latitude": 40.742462,
        "Longitude": -73.982322,
        "No_of_reviews": 599,
        "Rating": 3.5,
        "Phone": "+12126794603",
        "Zip_code": "10016",
        "Cuisine": "indpak"
    },
    {
        "insertedAtTimestamp": "2023-10-12T12:21:28.583969",
        "Business_ID": "ePn4BwyXeY8NKN-MWSgfrQ",
        "Name": "Kebab Aur Sharab",
        "Address": "247 W 72nd St, New York, NY 10023",
        "Latitude": 40.77951,
        "Longitude": -73.98331,
        "No_of_reviews": 86,
        "Rating": 4.0,
        "Phone": "+12125405247",
        "Zip_code": "10023",
        "Cuisine": "indpak"
    },
    {
        "insertedAtTimestamp": "2023-10-12T12:21:28.583969",
        "Business_ID": "KbCLZOKvPdNY7ptAg0kGxw",
        "Name": "The Kati Roll Company",
        "Address": "229 E 53rd St, New York, NY 10022",
        "Latitude": 40.757396,
        "Longitude": -73.9681074,
        "No_of_reviews": 352,
        "Rating": 3.5,
        "Phone": "+12128881700",
        "Zip_code": "10022",
        "Cuisine": "indpak"
    },
    {
        "insertedAtTimestamp": "2023-10-12T12:21:28.584970",
        "Business_ID": "JSX6Pk56w4BhgO8eSvCrKg",
        "Name": "aRoqa",
        "Address": "206 9th Ave, New York, NY 10011",
        "Latitude": 40.746065,
        "Longitude": -74.001254,
        "No_of_reviews": 402,
        "Rating": 4.0,
        "Phone": "+16466785471",
        "Zip_code": "10011",
        "Cuisine": "indpak"
    },
    {
        "insertedAtTimestamp": "2023-10-12T12:21:28.584970",
        "Business_ID": "zyQpS4QrYYB0VKXf7JPUlQ",
        "Name": "Atithi Indian Cuisine",
        "Address": "159 Grand St, Brooklyn, NY 11249",
        "Latitude": 40.714765,
        "Longitude": -73.961606,
        "No_of_reviews": 215,
        "Rating": 5.0,
        "Phone": "+17186849192",
        "Zip_code": "11249",
        "Cuisine": "indpak"
    },
    {
        "insertedAtTimestamp": "2023-10-12T12:21:28.585974",
        "Business_ID": "lxNU-aBq0yPwBDx-i89ahA",
        "Name": "Seva Indian Cuisine",
        "Address": "34-11 30th Ave, Astoria, NY 11103",
        "Latitude": 40.76571,
        "Longitude": -73.91839,
        "No_of_reviews": 1433,
        "Rating": 4.5,
        "Phone": "+17186264440",
        "Zip_code": "11103",
        "Cuisine": "indpak"
    },
    {
        "insertedAtTimestamp": "2023-10-12T12:21:28.586973",
        "Business_ID": "iYh7mB7PDd5ZvZZ4lFPF1w",
        "Name": "Anand Indian Cuisine",
        "Address": "304 E 78th St, New York, NY 10075",
        "Latitude": 40.77232,
        "Longitude": -73.955241,
        "No_of_reviews": 168,
        "Rating": 4.0,
        "Phone": "+12126500333",
        "Zip_code": "10075",
        "Cuisine": "indpak"
    },
    {
        "insertedAtTimestamp": "2023-10-12T12:21:28.586973",
        "Business_ID": "SP4bvMvxel_UPdof_er3HA",
        "Name": "Taco Mahal",
        "Address": "73 7th Ave S, New York, NY 10014",
        "Latitude": 40.73235768476899,
        "Longitude": -74.00332645767203,
        "No_of_reviews": 854,
        "Rating": 4.5,
        "Phone": "+16467191553",
        "Zip_code": "10014",
        "Cuisine": "indpak"
    },
    {
        "insertedAtTimestamp": "2023-10-12T12:21:28.586973",
        "Business_ID": "jYhbUh1TV7SCfPxjIhVpcg",
        "Name": "Baar Baar",
        "Address": "13 E 1st St, New York, NY 10003",
        "Latitude": 40.7244378855031,
        "Longitude": -73.9915524,
        "No_of_reviews": 1237,
        "Rating": 4.0,
        "Phone": "+12122281200",
        "Zip_code": "10003",
        "Cuisine": "indpak"
    },
    {
        "insertedAtTimestamp": "2023-10-12T12:21:28.586973",
        "Business_ID": "raGF9jAO7JOiIbFQ2_bTAg",
        "Name": "India at Time Square",
        "Address": "332 W 44th St, New York, NY 10036",
        "Latitude": 40.75941459798258,
        "Longitude": -73.99145881962656,
        "No_of_reviews": 102,
        "Rating": 4.5,
        "Phone": "+16464764356",
        "Zip_code": "10036",
        "Cuisine": "indpak"
    },
    {
        "insertedAtTimestamp": "2023-10-12T12:21:29.566679",
        "Business_ID": "vRrVSB-LegwUwIxpkeRVtQ",
        "Name": "Le Bernardin",
        "Address": "155 W 51st St, The Equitable Bldg, New York, NY 10019",
        "Latitude": 40.761557,
        "Longitude": -73.981763,
        "No_of_reviews": 2933,
        "Rating": 4.5,
        "Phone": "+12125541515",
        "Zip_code": "10019",
        "Cuisine": "Chinese"
    },
    {
        "insertedAtTimestamp": "2023-10-12T12:21:29.566679",
        "Business_ID": "z5hRX3iJ5Ty_S38iG_WY3Q",
        "Name": "Tanner Smiths",
        "Address": "204 W 55th St, New York, NY 10019",
        "Latitude": 40.76442,
        "Longitude": -73.98169,
        "No_of_reviews": 2050,
        "Rating": 4.5,
        "Phone": "+16465902034",
        "Zip_code": "10019",
        "Cuisine": "Chinese"
    },
    {
        "insertedAtTimestamp": "2023-10-12T12:21:29.567679",
        "Business_ID": "3Gz07E5YJjDTJPSuzsAStQ",
        "Name": "Ocean Prime",
        "Address": "123 W 52nd St, New York, NY 10019",
        "Latitude": 40.7617438,
        "Longitude": -73.9805565,
        "No_of_reviews": 809,
        "Rating": 4.5,
        "Phone": "+12129561404",
        "Zip_code": "10019",
        "Cuisine": "Chinese"
    },
    {
        "insertedAtTimestamp": "2023-10-12T12:21:29.567679",
        "Business_ID": "JYNBy2r3LVhJbLHE1bASfg",
        "Name": "The Smith",
        "Address": "1900 Broadway, New York, NY 10023",
        "Latitude": 40.77169,
        "Longitude": -73.98161,
        "No_of_reviews": 2147,
        "Rating": 4.0,
        "Phone": "+12124965700",
        "Zip_code": "10023",
        "Cuisine": "Chinese"
    },
    {
        "insertedAtTimestamp": "2023-10-12T12:21:29.567679",
        "Business_ID": "_LJFf9YqpYxvExTvVxb7Rw",
        "Name": "The Modern",
        "Address": "9 W 53rd St, New York, NY 10019",
        "Latitude": 40.761106128269006,
        "Longitude": -73.97670872686992,
        "No_of_reviews": 1170,
        "Rating": 4.5,
        "Phone": "+12123331220",
        "Zip_code": "10019",
        "Cuisine": "Chinese"
    },
    {
        "insertedAtTimestamp": "2023-10-12T12:21:29.567679",
        "Business_ID": "nvlxtOwbGqPW8E6_sYTfvw",
        "Name": "The Lobster Club",
        "Address": "98 Seagram Building E 53rd St, New York, NY 10022",
        "Latitude": 40.75852142674793,
        "Longitude": -73.97188834259569,
        "No_of_reviews": 412,
        "Rating": 4.0,
        "Phone": "+12122543000",
        "Zip_code": "10022",
        "Cuisine": "Chinese"
    },
    {
        "insertedAtTimestamp": "2023-10-12T12:21:29.568680",
        "Business_ID": "f7apP8A_0_KqcGQTK4V2TQ",
        "Name": "Aquavit",
        "Address": "65 E 55th St, New York, NY 10022",
        "Latitude": 40.76079,
        "Longitude": -73.97221,
        "No_of_reviews": 880,
        "Rating": 4.0,
        "Phone": "+12123077311",
        "Zip_code": "10022",
        "Cuisine": "Chinese"
    },
    {
        "insertedAtTimestamp": "2023-10-12T12:21:29.568680",
        "Business_ID": "XsXLVWr1UZWVhKThNvNiaA",
        "Name": "Blue Willow \u591c\u6765\u6e58",
        "Address": "40 W 56th St, New York, NY 10019",
        "Latitude": 40.76292,
        "Longitude": -73.976546,
        "No_of_reviews": 969,
        "Rating": 4.5,
        "Phone": "+12122132299",
        "Zip_code": "10019",
        "Cuisine": "Chinese"
    },
    {
        "insertedAtTimestamp": "2023-10-12T12:21:29.568680",
        "Business_ID": "AILf_L7I9vJ2pyHmSo9v8Q",
        "Name": "OBAO",
        "Address": "222 E 53rd St, New York, NY 10022",
        "Latitude": 40.75717754,
        "Longitude": -73.9685544,
        "No_of_reviews": 1180,
        "Rating": 4.0,
        "Phone": "+12123085588",
        "Zip_code": "10022",
        "Cuisine": "Chinese"
    },
    {
        "insertedAtTimestamp": "2023-10-12T12:21:29.568680",
        "Business_ID": "NN3mOWF5e_pnR1ArqM2bHQ",
        "Name": "OBAO",
        "Address": "647 9th Ave, New York, NY 10036",
        "Latitude": 40.7606544,
        "Longitude": -73.991332,
        "No_of_reviews": 4035,
        "Rating": 4.0,
        "Phone": "+12122458880",
        "Zip_code": "10036",
        "Cuisine": "Chinese"
    },
    {
        "insertedAtTimestamp": "2023-10-12T12:21:29.569679",
        "Business_ID": "MmXZLVwWcYugi_TXSHmjeQ",
        "Name": "Sushi by Bou Times Square",
        "Address": "132 W 47th St, New York, NY 10036",
        "Latitude": 40.75851,
        "Longitude": -73.98322,
        "No_of_reviews": 788,
        "Rating": 4.5,
        "Phone": "+19172687268",
        "Zip_code": "10036",
        "Cuisine": "Chinese"
    },
    {
        "insertedAtTimestamp": "2023-10-12T12:21:29.569679",
        "Business_ID": "B3_K2kUVbYOU0VaLcj_LTw",
        "Name": "Thai Villa",
        "Address": "5 E 19th St, G Floor, New York, NY 10003",
        "Latitude": 40.73902,
        "Longitude": -73.99065,
        "No_of_reviews": 4820,
        "Rating": 4.5,
        "Phone": "+12128029999",
        "Zip_code": "10003",
        "Cuisine": "Chinese"
    },
    {
        "insertedAtTimestamp": "2023-10-12T12:21:29.569679",
        "Business_ID": "z0lX40tXQxOHlU26VhLATA",
        "Name": "American Brass",
        "Address": "2-01 50th Ave, Long Island City, NY 11109",
        "Latitude": 40.7439708,
        "Longitude": -73.95849299999999,
        "No_of_reviews": 362,
        "Rating": 4.5,
        "Phone": "+17188061106",
        "Zip_code": "11109",
        "Cuisine": "Chinese"
    },
    {
        "insertedAtTimestamp": "2023-10-12T12:21:29.569679",
        "Business_ID": "EKkHfSYTm266-ZBve3SdgA",
        "Name": "Yoon Haeundae Galbi",
        "Address": "8 W 36th St, New York, NY 10018",
        "Latitude": 40.74996750318778,
        "Longitude": -73.98443095513923,
        "No_of_reviews": 732,
        "Rating": 4.5,
        "Phone": "+12126918078",
        "Zip_code": "10018",
        "Cuisine": "Chinese"
    },
    {
        "insertedAtTimestamp": "2023-10-12T12:21:29.570680",
        "Business_ID": "nRO136GRieGtxz18uD61DA",
        "Name": "Eleven Madison Park",
        "Address": "11 Madison Ave, New York, NY 10010",
        "Latitude": 40.7416907417333,
        "Longitude": -73.9872074872255,
        "No_of_reviews": 2446,
        "Rating": 4.5,
        "Phone": "+12128890905",
        "Zip_code": "10010",
        "Cuisine": "Chinese"
    },
    {
        "insertedAtTimestamp": "2023-10-12T12:21:29.570680",
        "Business_ID": "oLA02lMIfgvbYquvXzkARw",
        "Name": "Lillie's Victorian Establishment",
        "Address": "249 W 49th St, New York, NY 10019",
        "Latitude": 40.7614625,
        "Longitude": -73.9860519,
        "No_of_reviews": 1640,
        "Rating": 4.0,
        "Phone": "+12129574530",
        "Zip_code": "10019",
        "Cuisine": "Chinese"
    },
    {
        "insertedAtTimestamp": "2023-10-12T12:21:29.570680",
        "Business_ID": "b8a-8u_A51v2IzyjLVsx6w",
        "Name": "Del Frisco's Double Eagle Steakhouse",
        "Address": "1221 Ave Of The Americas, New York, NY 10020",
        "Latitude": 40.759412,
        "Longitude": -73.982221,
        "No_of_reviews": 3426,
        "Rating": 4.0,
        "Phone": "+12125755129",
        "Zip_code": "10020",
        "Cuisine": "Chinese"
    },
    {
        "insertedAtTimestamp": "2023-10-12T12:21:29.571681",
        "Business_ID": "DoSU8IPq-Py_YV3kYmXPfQ",
        "Name": "Trattoria Trecolori",
        "Address": "254 West 47th St, New York, NY 10036",
        "Latitude": 40.759876,
        "Longitude": -73.986767,
        "No_of_reviews": 2677,
        "Rating": 4.0,
        "Phone": "+12129974540",
        "Zip_code": "10036",
        "Cuisine": "Chinese"
    },
    {
        "insertedAtTimestamp": "2023-10-12T12:21:29.571681",
        "Business_ID": "7N6Jle8ovxzAiiwwtE77Yw",
        "Name": "Le Pavillon",
        "Address": "One Vanderbilt Ave, New York, NY 10017",
        "Latitude": 40.75284533722524,
        "Longitude": -73.97848111104443,
        "No_of_reviews": 170,
        "Rating": 4.5,
        "Phone": "+12126621000",
        "Zip_code": "10017",
        "Cuisine": "Chinese"
    },
    {
        "insertedAtTimestamp": "2023-10-12T12:21:29.571681",
        "Business_ID": "Hh9glEE_xDYT_pPUsRPXlA",
        "Name": "Blend on the Water",
        "Address": "45-40 Center Blvd, Long Island City, NY 11109",
        "Latitude": 40.748216,
        "Longitude": -73.956973,
        "No_of_reviews": 3797,
        "Rating": 4.0,
        "Phone": "+17186069851",
        "Zip_code": "11109",
        "Cuisine": "Chinese"
    },
    {
        "insertedAtTimestamp": "2023-10-12T12:21:29.571681",
        "Business_ID": "IOHaEgK1zDvUvB3SfKuGCw",
        "Name": "Parker & Quinn",
        "Address": "64 W 39th St, New York, NY 10018",
        "Latitude": 40.752586217581296,
        "Longitude": -73.98507131534421,
        "No_of_reviews": 1646,
        "Rating": 4.0,
        "Phone": "+12127290277",
        "Zip_code": "10018",
        "Cuisine": "Chinese"
    },
    {
        "insertedAtTimestamp": "2023-10-12T12:21:29.572681",
        "Business_ID": "veq1Bl1DW3UWMekZJUsG1Q",
        "Name": "Gramercy Tavern",
        "Address": "42 E 20th St, New York, NY 10003",
        "Latitude": 40.73844,
        "Longitude": -73.98825,
        "No_of_reviews": 3399,
        "Rating": 4.5,
        "Phone": "+12124770777",
        "Zip_code": "10003",
        "Cuisine": "Chinese"
    },
    {
        "insertedAtTimestamp": "2023-10-12T12:21:29.572681",
        "Business_ID": "c3eMI4_o4dPDDhPV_ibBYQ",
        "Name": "Ess-a-Bagel",
        "Address": "831 3rd Ave, New York, NY 10022",
        "Latitude": 40.75621204461465,
        "Longitude": -73.97028782455128,
        "No_of_reviews": 4449,
        "Rating": 4.0,
        "Phone": "+12129801010",
        "Zip_code": "10022",
        "Cuisine": "Chinese"
    },
    {
        "insertedAtTimestamp": "2023-10-12T12:21:29.572681",
        "Business_ID": "xMUZfoyzyJoTfZxrEZus4Q",
        "Name": "Mom's Kitchen & Bar",
        "Address": "701 9th Ave, New York, NY 10019",
        "Latitude": 40.76247,
        "Longitude": -73.9901,
        "No_of_reviews": 1803,
        "Rating": 4.5,
        "Phone": "+16466570080",
        "Zip_code": "10019",
        "Cuisine": "Chinese"
    },
    {
        "insertedAtTimestamp": "2023-10-12T12:21:29.573680",
        "Business_ID": "NbKATjp2MoQ4TvKKwu9fdA",
        "Name": "Mari",
        "Address": "679 9th Ave, New York, NY 10036",
        "Latitude": 40.76152,
        "Longitude": -73.99061,
        "No_of_reviews": 158,
        "Rating": 4.5,
        "Phone": "+16466493545",
        "Zip_code": "10036",
        "Cuisine": "Chinese"
    },
    {
        "insertedAtTimestamp": "2023-10-12T12:21:29.573680",
        "Business_ID": "TN4RnyqHMSupRFot4Q-_EA",
        "Name": "Ippudo Westside",
        "Address": "321 W 51st St, New York, NY 10019",
        "Latitude": 40.76344,
        "Longitude": -73.98661,
        "No_of_reviews": 4044,
        "Rating": 4.0,
        "Phone": "+12129742500",
        "Zip_code": "10019",
        "Cuisine": "Chinese"
    },
    {
        "insertedAtTimestamp": "2023-10-12T12:21:29.573680",
        "Business_ID": "mhhTORjUdXj-UIDjyGmhBg",
        "Name": "Estiatorio Milos - Midtown New York",
        "Address": "125 W 55th St, New York, NY 10019",
        "Latitude": 40.763541894630784,
        "Longitude": -73.97902511983438,
        "No_of_reviews": 1067,
        "Rating": 4.0,
        "Phone": "+12122457400",
        "Zip_code": "10019",
        "Cuisine": "Chinese"
    },
    {
        "insertedAtTimestamp": "2023-10-12T12:21:29.573680",
        "Business_ID": "SULHf6nGQ8sK0UpG1XU30w",
        "Name": "Los Tacos No.1",
        "Address": "229 W 43rd St, New York, NY 10036",
        "Latitude": 40.7575067,
        "Longitude": -73.9877717,
        "No_of_reviews": 2837,
        "Rating": 4.5,
        "Phone": "+12125744696",
        "Zip_code": "10036",
        "Cuisine": "Chinese"
    },
    {
        "insertedAtTimestamp": "2023-10-12T12:21:29.574681",
        "Business_ID": "7iY35991NhQ1AShJZCNZgA",
        "Name": "Sakagura",
        "Address": "211 E 43rd St, New York, NY 10017",
        "Latitude": 40.7516467024541,
        "Longitude": -73.9729489318165,
        "No_of_reviews": 1878,
        "Rating": 4.0,
        "Phone": "+12129537253",
        "Zip_code": "10017",
        "Cuisine": "Chinese"
    },
    {
        "insertedAtTimestamp": "2023-10-12T12:21:29.574681",
        "Business_ID": "Pr-q47vsmM4aoc2t_Sfk8w",
        "Name": "Momofuku Noodle Bar - Uptown",
        "Address": "10 Columbus Cir, Third Floor, New York, NY 10019",
        "Latitude": 40.76802583631109,
        "Longitude": -73.9829243,
        "No_of_reviews": 593,
        "Rating": 4.0,
        "Phone": "",
        "Zip_code": "10019",
        "Cuisine": "Chinese"
    },
    {
        "insertedAtTimestamp": "2023-10-12T12:21:29.574681",
        "Business_ID": "1DfbZ0VsSCg9g1KILmnvzQ",
        "Name": "Per Se",
        "Address": "10 Columbus Cir, Fl 4, New York, NY 10019",
        "Latitude": 40.7681528889558,
        "Longitude": -73.9827629623657,
        "No_of_reviews": 1871,
        "Rating": 4.5,
        "Phone": "+12128239335",
        "Zip_code": "10019",
        "Cuisine": "Chinese"
    },
    {
        "insertedAtTimestamp": "2023-10-12T12:21:29.575684",
        "Business_ID": "xq0cX_DgxiJMXwhmEl9kUA",
        "Name": "Caf\u00e9 China",
        "Address": "59 W 37th St, New York, NY 10018",
        "Latitude": 40.751587,
        "Longitude": -73.985815,
        "No_of_reviews": 1920,
        "Rating": 4.0,
        "Phone": "+12122132810",
        "Zip_code": "10018",
        "Cuisine": "Chinese"
    },
    {
        "insertedAtTimestamp": "2023-10-12T12:21:29.575684",
        "Business_ID": "H_KyiRhwho8rdlw_R93_0Q",
        "Name": "Marea",
        "Address": "240 Central Park S, New York, NY 10019",
        "Latitude": 40.767388,
        "Longitude": -73.981196,
        "No_of_reviews": 2354,
        "Rating": 4.0,
        "Phone": "+12125825100",
        "Zip_code": "10019",
        "Cuisine": "Chinese"
    },
    {
        "insertedAtTimestamp": "2023-10-12T12:21:29.575684",
        "Business_ID": "qm1J_dPA5IHij1oAnoZwHw",
        "Name": "nonono",
        "Address": "118 Madison Ave, New York, NY 10016",
        "Latitude": 40.74541891599005,
        "Longitude": -73.98492926795281,
        "No_of_reviews": 1173,
        "Rating": 4.0,
        "Phone": "+16467073227",
        "Zip_code": "10016",
        "Cuisine": "Chinese"
    },
    {
        "insertedAtTimestamp": "2023-10-12T12:21:29.576682",
        "Business_ID": "OAqsZMbjv66nOMqlimnYuQ",
        "Name": "Uva",
        "Address": "1486 2nd Ave, New York, NY 10075",
        "Latitude": 40.77219299003591,
        "Longitude": -73.95561517222123,
        "No_of_reviews": 2772,
        "Rating": 4.0,
        "Phone": "+12124724552",
        "Zip_code": "10075",
        "Cuisine": "Chinese"
    },
    {
        "insertedAtTimestamp": "2023-10-12T12:21:29.577684",
        "Business_ID": "pQuZDnefX038xurT1BhDXA",
        "Name": "Keens Steakhouse",
        "Address": "72 W 36th St, New York, NY 10018",
        "Latitude": 40.75071,
        "Longitude": -73.98652,
        "No_of_reviews": 3137,
        "Rating": 4.0,
        "Phone": "+12129473636",
        "Zip_code": "10018",
        "Cuisine": "Chinese"
    },
    {
        "insertedAtTimestamp": "2023-10-12T12:21:29.577684",
        "Business_ID": "WyiTT3VHjzowMnOnUpZ7TQ",
        "Name": "Empell\u00f3n",
        "Address": "510 Madison Ave, New York, NY 10022",
        "Latitude": 40.75972,
        "Longitude": -73.97472,
        "No_of_reviews": 437,
        "Rating": 4.0,
        "Phone": "+12123801215",
        "Zip_code": "10022",
        "Cuisine": "Chinese"
    },
    {
        "insertedAtTimestamp": "2023-10-12T12:21:29.577684",
        "Business_ID": "bEXTA_Gwo2oVg4gnFd9fNA",
        "Name": "Ai Fiori",
        "Address": "400 5th Ave, 2nd Level, The Langham, New York, NY 10018",
        "Latitude": 40.750132,
        "Longitude": -73.983824,
        "No_of_reviews": 1470,
        "Rating": 4.0,
        "Phone": "+12126138660",
        "Zip_code": "10018",
        "Cuisine": "Chinese"
    },
    {
        "insertedAtTimestamp": "2023-10-12T12:21:29.578681",
        "Business_ID": "jDIVPYpxQAk1HUAi0NIlQw",
        "Name": "Pazza Notte",
        "Address": "1375 6th Ave, New York, NY 10019",
        "Latitude": 40.763454,
        "Longitude": -73.97818,
        "No_of_reviews": 1051,
        "Rating": 4.0,
        "Phone": "+12127656288",
        "Zip_code": "10019",
        "Cuisine": "Chinese"
    },
    {
        "insertedAtTimestamp": "2023-10-12T12:21:29.578681",
        "Business_ID": "RjeW_l8OF99rn5df5-Rj4g",
        "Name": "Totto Ramen - Midtown East",
        "Address": "248 E 52nd St, New York, NY 10022",
        "Latitude": 40.756155,
        "Longitude": -73.968141,
        "No_of_reviews": 1288,
        "Rating": 4.0,
        "Phone": "+12124210052",
        "Zip_code": "10022",
        "Cuisine": "Chinese"
    },
    {
        "insertedAtTimestamp": "2023-10-12T12:21:29.578681",
        "Business_ID": "5S8ZK9XLdl4l645twbNYZQ",
        "Name": "Boqueria UES",
        "Address": "1460 2nd Ave, New York, NY 10075",
        "Latitude": 40.77150095318256,
        "Longitude": -73.95608983374693,
        "No_of_reviews": 950,
        "Rating": 4.0,
        "Phone": "+12123432227",
        "Zip_code": "10075",
        "Cuisine": "Chinese"
    },
    {
        "insertedAtTimestamp": "2023-10-12T12:21:29.579685",
        "Business_ID": "UK1oGbr8GU2rufpnJR4-HQ",
        "Name": "Joe's Home of Soup Dumplings",
        "Address": "7 E 48th St, between Fifth and Madison avenues, New York, NY 10017",
        "Latitude": 40.75723,
        "Longitude": -73.97702,
        "No_of_reviews": 494,
        "Rating": 4.5,
        "Phone": "+12123333868",
        "Zip_code": "10017",
        "Cuisine": "Chinese"
    },
    {
        "insertedAtTimestamp": "2023-10-12T12:21:29.579685",
        "Business_ID": "E48WbksxAk19a8vjJRVIVQ",
        "Name": "Ramerino Italian Prime",
        "Address": "16 E 39th St, New York, NY 10016",
        "Latitude": 40.75107,
        "Longitude": -73.98135,
        "No_of_reviews": 73,
        "Rating": 4.5,
        "Phone": "+16468807885",
        "Zip_code": "10016",
        "Cuisine": "Chinese"
    },
    {
        "insertedAtTimestamp": "2023-10-12T12:21:29.580685",
        "Business_ID": "YHGGyH4hn_5UyV1rWgA5hg",
        "Name": "Tommy Bahama Restaurant | Bar | Store - New York",
        "Address": "551 5th Ave, New York, NY 10176",
        "Latitude": 40.7553882217953,
        "Longitude": -73.9792002147005,
        "No_of_reviews": 665,
        "Rating": 4.0,
        "Phone": "+12125370960",
        "Zip_code": "10176",
        "Cuisine": "Chinese"
    },
    {
        "insertedAtTimestamp": "2023-10-12T12:21:29.580685",
        "Business_ID": "ieXKc6S3WlEiVkyxgaF9Ig",
        "Name": "Tempura Matsui",
        "Address": "222 E 39th St, New York, NY 10016",
        "Latitude": 40.74819,
        "Longitude": -73.97467,
        "No_of_reviews": 191,
        "Rating": 4.5,
        "Phone": "+12129868885",
        "Zip_code": "10016",
        "Cuisine": "Chinese"
    },
    {
        "insertedAtTimestamp": "2023-10-12T12:21:29.580685",
        "Business_ID": "7EaiwMVaNdQibSs0yYkE5Q",
        "Name": "Sushi Yasuda",
        "Address": "204 E 43rd St, New York, NY 10017",
        "Latitude": 40.75113,
        "Longitude": -73.97347,
        "No_of_reviews": 2279,
        "Rating": 4.0,
        "Phone": "+12129721001",
        "Zip_code": "10017",
        "Cuisine": "Chinese"
    },
    {
        "insertedAtTimestamp": "2023-10-12T12:21:29.581683",
        "Business_ID": "xEDD2ScBU3jHhWxlMC7dkQ",
        "Name": "Nougatine at Jean-Georges",
        "Address": "1 Central Park W, New York, NY 10023",
        "Latitude": 40.76891,
        "Longitude": -73.98176,
        "No_of_reviews": 1253,
        "Rating": 4.0,
        "Phone": "+12122993900",
        "Zip_code": "10023",
        "Cuisine": "Chinese"
    },
    {
        "insertedAtTimestamp": "2023-10-12T12:21:29.581683",
        "Business_ID": "TcuWyuZAORVnQBPCMNbTgw",
        "Name": "Beyond Sushi",
        "Address": "62 W 56th St, New York, NY 10019",
        "Latitude": 40.76331,
        "Longitude": -73.97717,
        "No_of_reviews": 843,
        "Rating": 4.5,
        "Phone": "+16469645097",
        "Zip_code": "10019",
        "Cuisine": "Chinese"
    },
    {
        "insertedAtTimestamp": "2023-10-12T12:21:29.581683",
        "Business_ID": "JeCtYANe0eqW8xe1SN3lWg",
        "Name": "Turntable Chicken Jazz",
        "Address": "20 W 33rd St, New York, NY 10001",
        "Latitude": 40.74828,
        "Longitude": -73.98649,
        "No_of_reviews": 2192,
        "Rating": 4.0,
        "Phone": "+12127149700",
        "Zip_code": "10001",
        "Cuisine": "Chinese"
    },
    {
        "insertedAtTimestamp": "2023-10-12T12:21:29.582683",
        "Business_ID": "oTL_nPII6x0HfPVpEQklUg",
        "Name": "PLANTA Queen Nomad",
        "Address": "15 W 27th St, New York, NY 10001",
        "Latitude": 40.744435,
        "Longitude": -73.98832,
        "No_of_reviews": 663,
        "Rating": 4.5,
        "Phone": "+19176757700",
        "Zip_code": "10001",
        "Cuisine": "Chinese"
    },
    {
        "insertedAtTimestamp": "2023-10-12T12:21:31.000001",
        "Business_ID": "A_YpTLbAlEqeLVSs9bxbEA",
        "Name": "Club A Steakhouse",
        "Address": "240 E 58th St, New York, NY 10022",
        "Latitude": 40.76006,
        "Longitude": -73.96557,
        "No_of_reviews": 3350,
        "Rating": 4.5,
        "Phone": "+12126884190",
        "Zip_code": "10022",
        "Cuisine": "Mexican"
    },
    {
        "insertedAtTimestamp": "2023-10-12T12:21:31.002998",
        "Business_ID": "22nKUyCIbpnzR6R3_g1ptQ",
        "Name": "Carmine's Italian Restaurant - Times Square",
        "Address": "200 W 44th St, New York, NY 10036",
        "Latitude": 40.75749848725768,
        "Longitude": -73.98665333142026,
        "No_of_reviews": 4665,
        "Rating": 4.0,
        "Phone": "+12122213800",
        "Zip_code": "10036",
        "Cuisine": "Mexican"
    },
    {
        "insertedAtTimestamp": "2023-10-12T12:21:31.003998",
        "Business_ID": "VmdyRRMtUXOWV7F7w0ImwQ",
        "Name": "Piccola Cucina Uptown",
        "Address": "106 E 60th St, New York, NY 10022",
        "Latitude": 40.763174,
        "Longitude": -73.969046,
        "No_of_reviews": 377,
        "Rating": 4.5,
        "Phone": "+16467073997",
        "Zip_code": "10022",
        "Cuisine": "Mexican"
    },
    {
        "insertedAtTimestamp": "2023-10-12T12:21:31.005001",
        "Business_ID": "DZaN3bNWfwcm__sNw5bvDg",
        "Name": "Daniel",
        "Address": "60 E 65th St, New York, NY 10065",
        "Latitude": 40.76678,
        "Longitude": -73.96757,
        "No_of_reviews": 1877,
        "Rating": 4.5,
        "Phone": "+12122880033",
        "Zip_code": "10065",
        "Cuisine": "Mexican"
    },
    {
        "insertedAtTimestamp": "2023-10-12T12:21:31.010002",
        "Business_ID": "7Q68kpPS6okcC8Kkw7g42A",
        "Name": "Sushi Lab Rooftop",
        "Address": "132 W 47th St, New York, NY 10036",
        "Latitude": 40.758413,
        "Longitude": -73.983292,
        "No_of_reviews": 569,
        "Rating": 4.0,
        "Phone": "+12124320000",
        "Zip_code": "10036",
        "Cuisine": "Mexican"
    },
    {
        "insertedAtTimestamp": "2023-10-12T12:21:31.013001",
        "Business_ID": "UA2M9QFZghe-9th2KwLoWQ",
        "Name": "Burger & Lobster - Flatiron NYC",
        "Address": "39 W 19th St, New York, NY 10011",
        "Latitude": 40.74007,
        "Longitude": -73.99344,
        "No_of_reviews": 5888,
        "Rating": 4.0,
        "Phone": "+16468337532",
        "Zip_code": "10011",
        "Cuisine": "Mexican"
    },
    {
        "insertedAtTimestamp": "2023-10-12T12:21:32.247878",
        "Business_ID": "FZpm4_fbd6P984foOUejWg",
        "Name": "Jongro BBQ",
        "Address": "22 W 32nd St, Fl 2, New York, NY 10001",
        "Latitude": 40.747514,
        "Longitude": -73.986884,
        "No_of_reviews": 2537,
        "Rating": 4.0,
        "Phone": "+12124732233",
        "Zip_code": "10001",
        "Cuisine": "Mexican"
    },
    {
        "insertedAtTimestamp": "2023-10-12T12:21:32.247878",
        "Business_ID": "s-b1Mn_Gzkftz2MCjZ3lwg",
        "Name": "Turntable LP Bar & Karaoke",
        "Address": "34-36 W 32nd St, Fl 5, New York, NY 10001",
        "Latitude": 40.74769,
        "Longitude": -73.98735,
        "No_of_reviews": 392,
        "Rating": 4.5,
        "Phone": "+12125944344",
        "Zip_code": "10001",
        "Cuisine": "Mexican"
    },
    {
        "insertedAtTimestamp": "2023-10-12T12:21:32.248878",
        "Business_ID": "zR92VSkXj1rt5KTJ15bkAw",
        "Name": "Benjamin Steakhouse Prime",
        "Address": "23 E 40th St, New York, NY 10016",
        "Latitude": 40.7515,
        "Longitude": -73.97993,
        "No_of_reviews": 494,
        "Rating": 4.5,
        "Phone": "+12123380818",
        "Zip_code": "10016",
        "Cuisine": "Mexican"
    },
    {
        "insertedAtTimestamp": "2023-10-12T12:21:32.248878",
        "Business_ID": "210LxcDl5dXlYOMlIUmEFQ",
        "Name": "Lips Drag Queen Show Palace Restaurant & Bar",
        "Address": "227 E 56th St, New York, NY 10022",
        "Latitude": 40.75923,
        "Longitude": -73.96691,
        "No_of_reviews": 784,
        "Rating": 4.0,
        "Phone": "+12126757710",
        "Zip_code": "10022",
        "Cuisine": "Mexican"
    },
    {
        "insertedAtTimestamp": "2023-10-12T12:21:32.249879",
        "Business_ID": "b2naaHiaR57Hm6JZG0njPg",
        "Name": "Draught 55",
        "Address": "245 E 55th St, New York, NY 10022",
        "Latitude": 40.758377,
        "Longitude": -73.966515,
        "No_of_reviews": 412,
        "Rating": 4.0,
        "Phone": "+12123004096",
        "Zip_code": "10022",
        "Cuisine": "Mexican"
    },
    {
        "insertedAtTimestamp": "2023-10-12T12:21:32.250258",
        "Business_ID": "UC3n_0vZ5zI1fvi7UzNZAg",
        "Name": "Sabai Thai",
        "Address": "432 Park Ave S, New York, NY 10016",
        "Latitude": 40.74422,
        "Longitude": -73.98365,
        "No_of_reviews": 472,
        "Rating": 4.5,
        "Phone": "+16464764521",
        "Zip_code": "10016",
        "Cuisine": "Mexican"
    },
    {
        "insertedAtTimestamp": "2023-10-12T12:21:32.250258",
        "Business_ID": "ettNH3FWzwaHCBMSFuy5tA",
        "Name": "Rib No 7",
        "Address": "32 W 33rd St, New York, NY 10001",
        "Latitude": 40.74834,
        "Longitude": -73.98681,
        "No_of_reviews": 262,
        "Rating": 4.5,
        "Phone": "+12123810802",
        "Zip_code": "10001",
        "Cuisine": "Mexican"
    },
    {
        "insertedAtTimestamp": "2023-10-12T12:21:32.250258",
        "Business_ID": "-Exv1AEsaKU6Cdb2TO_ZUg",
        "Name": "The Lobster Club",
        "Address": "98 E 53rd St, New York, NY 10022",
        "Latitude": 40.758301,
        "Longitude": -73.971868,
        "No_of_reviews": 153,
        "Rating": 4.0,
        "Phone": "+12123759001",
        "Zip_code": "10022",
        "Cuisine": "Mexican"
    },
    {
        "insertedAtTimestamp": "2023-10-12T12:21:32.251261",
        "Business_ID": "jNRT5vY1Hvp5WDTaHy4Mhw",
        "Name": "Sarge's Delicatessen & Diner",
        "Address": "548 3rd Ave, New York, NY 10016",
        "Latitude": 40.7473279523583,
        "Longitude": -73.9772017867971,
        "No_of_reviews": 1450,
        "Rating": 4.0,
        "Phone": "+12126790442",
        "Zip_code": "10016",
        "Cuisine": "Mexican"
    },
    {
        "insertedAtTimestamp": "2023-10-12T12:21:32.251261",
        "Business_ID": "XsElXaLxUPKquI78poB8yw",
        "Name": "Maison Pickle",
        "Address": "2315 Broadway, New York, NY 10024",
        "Latitude": 40.7870473,
        "Longitude": -73.9781361,
        "No_of_reviews": 1777,
        "Rating": 4.5,
        "Phone": "+12124969100",
        "Zip_code": "10024",
        "Cuisine": "Mexican"
    },
    {
        "insertedAtTimestamp": "2023-10-12T12:21:32.251261",
        "Business_ID": "cTE0e96GYzet799EJeStoQ",
        "Name": "Chama Mama - Chelsea",
        "Address": "149 W 14th St, New York, NY 10011",
        "Latitude": 40.7384,
        "Longitude": -73.99892,
        "No_of_reviews": 694,
        "Rating": 4.5,
        "Phone": "+16464389007",
        "Zip_code": "10011",
        "Cuisine": "Mexican"
    },
    {
        "insertedAtTimestamp": "2023-10-12T12:21:32.252260",
        "Business_ID": "diCW3Pj1PTVRSyol_d7cZw",
        "Name": "Chef's Table at Brooklyn Fare",
        "Address": "431 W 37th St, New York, NY 10018",
        "Latitude": 40.7561259950317,
        "Longitude": -73.996595564107,
        "No_of_reviews": 670,
        "Rating": 4.5,
        "Phone": "+12122169700",
        "Zip_code": "10018",
        "Cuisine": "Mexican"
    },
    {
        "insertedAtTimestamp": "2023-10-12T12:21:32.252260",
        "Business_ID": "tRIHhPKryUZ56SfIz6mLiA",
        "Name": "Angelo's Coal Oven Pizzeria",
        "Address": "117 W 57th St, New York, NY 10019",
        "Latitude": 40.76492,
        "Longitude": -73.97794,
        "No_of_reviews": 1202,
        "Rating": 4.0,
        "Phone": "+12123334333",
        "Zip_code": "10019",
        "Cuisine": "Mexican"
    },
    {
        "insertedAtTimestamp": "2023-10-12T12:21:32.252260",
        "Business_ID": "sGqKDtizXj3tg9jnAc9FeQ",
        "Name": "K Rico Steakhouse",
        "Address": "772 9th Ave, New York, NY 10019",
        "Latitude": 40.764345,
        "Longitude": -73.98798,
        "No_of_reviews": 705,
        "Rating": 4.5,
        "Phone": "+12127579393",
        "Zip_code": "10019",
        "Cuisine": "Mexican"
    },
    {
        "insertedAtTimestamp": "2023-10-12T12:21:32.253262",
        "Business_ID": "TU_BU9HLflYI2xlyqVQdRA",
        "Name": "TAO Uptown",
        "Address": "42 E 58th St, New York, NY 10022",
        "Latitude": 40.762639,
        "Longitude": -73.971447,
        "No_of_reviews": 2920,
        "Rating": 3.5,
        "Phone": "+12128882288",
        "Zip_code": "10022",
        "Cuisine": "Mexican"
    },
    {
        "insertedAtTimestamp": "2023-10-12T12:21:32.253262",
        "Business_ID": "I6optu9x0JAf8oT5lqJ8qw",
        "Name": "The Blue Dog Cookhouse & Bar",
        "Address": "308 W 50th St, New York, NY 10019",
        "Latitude": 40.76244,
        "Longitude": -73.98674,
        "No_of_reviews": 1520,
        "Rating": 4.0,
        "Phone": "+12124590700",
        "Zip_code": "10019",
        "Cuisine": "Mexican"
    },
    {
        "insertedAtTimestamp": "2023-10-12T12:21:32.253262",
        "Business_ID": "wyjtGsW5NeVDknGQWnIPAQ",
        "Name": "wagamama - midtown",
        "Address": "100 W 55th St, New York, NY 10019",
        "Latitude": 40.76316041296893,
        "Longitude": -73.97885444091449,
        "No_of_reviews": 343,
        "Rating": 4.0,
        "Phone": "+13329006111",
        "Zip_code": "10019",
        "Cuisine": "Mexican"
    },
    {
        "insertedAtTimestamp": "2023-10-12T12:21:32.254262",
        "Business_ID": "y6XohzcYjUAQOD8U3NT_yw",
        "Name": "The Stag's Head",
        "Address": "252 E 51st St, Ste 1, New York, NY 10022",
        "Latitude": 40.755592,
        "Longitude": -73.968588,
        "No_of_reviews": 445,
        "Rating": 4.0,
        "Phone": "+12128882453",
        "Zip_code": "10022",
        "Cuisine": "Mexican"
    },
    {
        "insertedAtTimestamp": "2023-10-12T12:21:32.254262",
        "Business_ID": "xe9qWNyYmsRvNGRPgW-ZcA",
        "Name": "Dons Bogam BBQ & Wine Bar",
        "Address": "17 E 32nd St, New York, NY 10016",
        "Latitude": 40.746873,
        "Longitude": -73.984392,
        "No_of_reviews": 1126,
        "Rating": 4.0,
        "Phone": "+12126832200",
        "Zip_code": "10016",
        "Cuisine": "Mexican"
    },
    {
        "insertedAtTimestamp": "2023-10-12T12:21:32.254262",
        "Business_ID": "scjoZtbTQHi35xhAlUm2iQ",
        "Name": "L'ADRESSE",
        "Address": "1065 Ave Of The Americas, New York, NY 10018",
        "Latitude": 40.753918142987104,
        "Longitude": -73.98531150211585,
        "No_of_reviews": 811,
        "Rating": 4.0,
        "Phone": "+12122212510",
        "Zip_code": "10018",
        "Cuisine": "Mexican"
    },
    {
        "insertedAtTimestamp": "2023-10-12T12:21:32.255264",
        "Business_ID": "TzVVPWK_4dhdSEpNqZwIhQ",
        "Name": "Toscana 49",
        "Address": "143 East 49 St, New York, NY 10017",
        "Latitude": 40.7556957079225,
        "Longitude": -73.9717184007168,
        "No_of_reviews": 345,
        "Rating": 4.0,
        "Phone": "+12122560190",
        "Zip_code": "10017",
        "Cuisine": "Mexican"
    },
    {
        "insertedAtTimestamp": "2023-10-12T12:21:32.255264",
        "Business_ID": "_jVOqHgcLxAOyA6uJE5Llg",
        "Name": "KOBA Korean BBQ",
        "Address": "918 3rd Ave, New York, NY 10022",
        "Latitude": 40.7593004088879,
        "Longitude": -73.9685673,
        "No_of_reviews": 106,
        "Rating": 4.5,
        "Phone": "+19174091410",
        "Zip_code": "10022",
        "Cuisine": "Mexican"
    },
    {
        "insertedAtTimestamp": "2023-10-12T12:21:32.255264",
        "Business_ID": "6ii5cphr65vt6zrP9N5RVg",
        "Name": "Chamoun\u2019s Way",
        "Address": "1237 1st Ave, New York, NY 10065",
        "Latitude": 40.76456,
        "Longitude": -73.95858,
        "No_of_reviews": 176,
        "Rating": 5.0,
        "Phone": "+19176930690",
        "Zip_code": "10065",
        "Cuisine": "Mexican"
    },
    {
        "insertedAtTimestamp": "2023-10-12T12:21:32.256261",
        "Business_ID": "ETgJqJHV7BW6pIr9Ox74sA",
        "Name": "Am\u00e9lie",
        "Address": "22 W 8th St, New York, NY 10011",
        "Latitude": 40.7327,
        "Longitude": -73.99766,
        "No_of_reviews": 2917,
        "Rating": 4.5,
        "Phone": "+12125332962",
        "Zip_code": "10011",
        "Cuisine": "Mexican"
    },
    {
        "insertedAtTimestamp": "2023-10-12T12:21:32.256261",
        "Business_ID": "kctef59qqlzJNqAc1ZGEvg",
        "Name": "The Capital Grille",
        "Address": "155 E 42nd St, New York, NY 10017",
        "Latitude": 40.7511718,
        "Longitude": -73.974862,
        "No_of_reviews": 907,
        "Rating": 4.0,
        "Phone": "+12129532000",
        "Zip_code": "10017",
        "Cuisine": "Mexican"
    },
    {
        "insertedAtTimestamp": "2023-10-12T12:21:32.256261",
        "Business_ID": "WqjqHMozyW42XLTtLnKGag",
        "Name": "La Pulperia Hell's Kitchen",
        "Address": "623 9th Ave, New York, NY 10036",
        "Latitude": 40.7599217,
        "Longitude": -73.991841,
        "No_of_reviews": 891,
        "Rating": 4.0,
        "Phone": "+16466698984",
        "Zip_code": "10036",
        "Cuisine": "Mexican"
    },
    {
        "insertedAtTimestamp": "2023-10-12T12:21:32.256261",
        "Business_ID": "WJS06XxRdc6DD1s4LWE9HA",
        "Name": "Fish Cheeks",
        "Address": "55 Bond St, New York, NY 10012",
        "Latitude": 40.7258,
        "Longitude": -73.9927,
        "No_of_reviews": 1405,
        "Rating": 4.5,
        "Phone": "+12126772223",
        "Zip_code": "10012",
        "Cuisine": "Mexican"
    },
    {
        "insertedAtTimestamp": "2023-10-12T12:21:32.257262",
        "Business_ID": "6qcydPo5eTSB4XHyyZDvkA",
        "Name": "Bareburger - Hell's Kitchen",
        "Address": "366 W 46th St, New York, NY 10036",
        "Latitude": 40.760558,
        "Longitude": -73.990357,
        "No_of_reviews": 1032,
        "Rating": 4.0,
        "Phone": "+12126732273",
        "Zip_code": "10036",
        "Cuisine": "Mexican"
    },
    {
        "insertedAtTimestamp": "2023-10-12T12:21:32.257262",
        "Business_ID": "cCesIqo-LQt0cRlZAnrAZQ",
        "Name": "Friedman's",
        "Address": "132 W 31st St, New York, NY 10001",
        "Latitude": 40.748298,
        "Longitude": -73.990737,
        "No_of_reviews": 2950,
        "Rating": 4.0,
        "Phone": "+12129719400",
        "Zip_code": "10001",
        "Cuisine": "Mexican"
    },
    {
        "insertedAtTimestamp": "2023-10-12T12:21:32.258268",
        "Business_ID": "AHrU1F123QPdVPTCnsy_xA",
        "Name": "Chalong",
        "Address": "749 9th Ave, New York, NY 10019",
        "Latitude": 40.763924,
        "Longitude": -73.988883,
        "No_of_reviews": 197,
        "Rating": 4.5,
        "Phone": "+12124666456",
        "Zip_code": "10019",
        "Cuisine": "Mexican"
    },
    {
        "insertedAtTimestamp": "2023-10-12T12:21:32.258268",
        "Business_ID": "JJLFsLZbL21fbYRqcIGCLA",
        "Name": "Awesum Dimsum",
        "Address": "612 8th Ave, New York, NY 10018",
        "Latitude": 40.7557,
        "Longitude": -73.9907,
        "No_of_reviews": 315,
        "Rating": 4.5,
        "Phone": "+12125208099",
        "Zip_code": "10018",
        "Cuisine": "Mexican"
    },
    {
        "insertedAtTimestamp": "2023-10-12T12:21:32.259264",
        "Business_ID": "mi3r8tPY-nHGfsl-9BGmBw",
        "Name": "Sushi By Bo\u016b - NoMad",
        "Address": "32 E 32nd St, New York, NY 10016",
        "Latitude": 40.745939,
        "Longitude": -73.983523,
        "No_of_reviews": 329,
        "Rating": 4.5,
        "Phone": "+19172687268",
        "Zip_code": "10016",
        "Cuisine": "Mexican"
    },
    {
        "insertedAtTimestamp": "2023-10-12T12:21:32.259264",
        "Business_ID": "Gc7OVEIs4HodL4hw9U3C3w",
        "Name": "Copinette",
        "Address": "891 1st Ave, New York, NY 10022",
        "Latitude": 40.75407,
        "Longitude": -73.96623,
        "No_of_reviews": 227,
        "Rating": 4.0,
        "Phone": "+12129034001",
        "Zip_code": "10022",
        "Cuisine": "Mexican"
    },
    {
        "insertedAtTimestamp": "2023-10-12T12:21:32.259264",
        "Business_ID": "MOwB9YYd-Ko6nVgSB-ltQw",
        "Name": "Briciola",
        "Address": "370 W 51st St, New York, NY 10019",
        "Latitude": 40.7637997047278,
        "Longitude": -73.9880919456482,
        "No_of_reviews": 1012,
        "Rating": 4.0,
        "Phone": "+16466785763",
        "Zip_code": "10019",
        "Cuisine": "Mexican"
    },
    {
        "insertedAtTimestamp": "2023-10-12T12:21:32.260263",
        "Business_ID": "5F9kZPnAleDYqCeCyvGJPA",
        "Name": "Bad Roman",
        "Address": "10 Columbus Cir, New York, NY 10019",
        "Latitude": 40.768494,
        "Longitude": -73.983072,
        "No_of_reviews": 366,
        "Rating": 4.0,
        "Phone": "+12129702033",
        "Zip_code": "10019",
        "Cuisine": "Mexican"
    },
    {
        "insertedAtTimestamp": "2023-10-12T12:21:32.260263",
        "Business_ID": "H26qMBb0OFNn2xmSTM1Phw",
        "Name": "Kings of Kobe",
        "Address": "650 W 42nd St, New York, NY 10036",
        "Latitude": 40.761172,
        "Longitude": -74.000307,
        "No_of_reviews": 447,
        "Rating": 4.5,
        "Phone": "+16463705121",
        "Zip_code": "10036",
        "Cuisine": "Mexican"
    },
    {
        "insertedAtTimestamp": "2023-10-12T12:21:32.260263",
        "Business_ID": "C3tP0fNNAoxOAC3O406CXQ",
        "Name": "Le Sia",
        "Address": "651 9th Ave, New York, NY 10036",
        "Latitude": 40.76072,
        "Longitude": -73.99119,
        "No_of_reviews": 139,
        "Rating": 4.5,
        "Phone": "+16465595220",
        "Zip_code": "10036",
        "Cuisine": "Mexican"
    },
    {
        "insertedAtTimestamp": "2023-10-12T12:21:32.261263",
        "Business_ID": "KEEXuHCYhsQJ-zpJhu98bA",
        "Name": "Joe's Pizza",
        "Address": "1435 Broadway, New York, NY 10018",
        "Latitude": 40.7547,
        "Longitude": -73.98696,
        "No_of_reviews": 2040,
        "Rating": 4.0,
        "Phone": "+16465594878",
        "Zip_code": "10018",
        "Cuisine": "Mexican"
    },
    {
        "insertedAtTimestamp": "2023-10-12T12:21:32.261263",
        "Business_ID": "iGmQlzlI4g2ky8cogfDpnQ",
        "Name": "SUGARFISH | Midtown East",
        "Address": "152 E 53rd St, New York, NY 10022",
        "Latitude": 40.7579096,
        "Longitude": -73.9702782,
        "No_of_reviews": 132,
        "Rating": 4.5,
        "Phone": "+19179857726",
        "Zip_code": "10022",
        "Cuisine": "Mexican"
    },
    {
        "insertedAtTimestamp": "2023-10-12T12:21:32.261263",
        "Business_ID": "TBp9gdS6xEbSQqffVZ7iag",
        "Name": "KazuNori | NoMad",
        "Address": "15 W 28th St, New York, NY 10001",
        "Latitude": 40.74519,
        "Longitude": -73.98824,
        "No_of_reviews": 1456,
        "Rating": 4.5,
        "Phone": "+13475945940",
        "Zip_code": "10001",
        "Cuisine": "Mexican"
    },
    {
        "insertedAtTimestamp": "2023-10-12T12:21:32.262264",
        "Business_ID": "hKdvsbuQRtjajWYwjaoOQw",
        "Name": "Tavern on the Green",
        "Address": "67 Central Park W, New York, NY 10023",
        "Latitude": 40.772194,
        "Longitude": -73.9776,
        "No_of_reviews": 1959,
        "Rating": 3.5,
        "Phone": "+12128778684",
        "Zip_code": "10023",
        "Cuisine": "Mexican"
    },
    {
        "insertedAtTimestamp": "2023-10-12T12:21:32.262264",
        "Business_ID": "BPo5XByMdNiXK_i--gqiRA",
        "Name": "Duomo51",
        "Address": "25 W 51st St, Fl 7, New York, NY 10019",
        "Latitude": 40.759979,
        "Longitude": -73.97824,
        "No_of_reviews": 56,
        "Rating": 4.5,
        "Phone": "+16463988098",
        "Zip_code": "10019",
        "Cuisine": "Mexican"
    },
    {
        "insertedAtTimestamp": "2023-10-12T12:21:32.262264",
        "Business_ID": "WG639VkTjmK5dzydd1BBJA",
        "Name": "Rubirosa",
        "Address": "235 Mulberry St, New York, NY 10012",
        "Latitude": 40.722766,
        "Longitude": -73.996233,
        "No_of_reviews": 3171,
        "Rating": 4.5,
        "Phone": "+12129650500",
        "Zip_code": "10012",
        "Cuisine": "Mexican"
    },
    {
        "insertedAtTimestamp": "2023-10-12T12:21:32.262264",
        "Business_ID": "s5N-w7EPY3DA68id5qycyA",
        "Name": "Zaytinya - New York",
        "Address": "1185 Broadway, New York, NY 10001",
        "Latitude": 40.74549437933232,
        "Longitude": -73.9889085,
        "No_of_reviews": 282,
        "Rating": 4.0,
        "Phone": "+12128049070",
        "Zip_code": "10001",
        "Cuisine": "Mexican"
    },
    {
        "insertedAtTimestamp": "2023-10-12T12:21:33.267279",
        "Business_ID": "KcOeFHAojaRDV-DxQJkfPA",
        "Name": "Omakase By Korami",
        "Address": "400A W 50th St, New York, NY 10019",
        "Latitude": 40.763503307884655,
        "Longitude": -73.989323,
        "No_of_reviews": 405,
        "Rating": 5.0,
        "Phone": "+19172150650",
        "Zip_code": "10019",
        "Cuisine": "Italian"
    },
    {
        "insertedAtTimestamp": "2023-10-12T12:21:33.268282",
        "Business_ID": "Xd_l7jtUAZZAAvK8-mI2Jw",
        "Name": "The Smith",
        "Address": "1150 Broadway, New York, NY 10010",
        "Latitude": 40.74424,
        "Longitude": -73.98878,
        "No_of_reviews": 1372,
        "Rating": 4.0,
        "Phone": "+12126854500",
        "Zip_code": "10010",
        "Cuisine": "Italian"
    },
    {
        "insertedAtTimestamp": "2023-10-12T12:21:33.268282",
        "Business_ID": "fX_E2J6LqK6u77zNa8xyJQ",
        "Name": "JUA",
        "Address": "36 E 22nd St, New York, NY 10010",
        "Latitude": 40.739694,
        "Longitude": -73.987832,
        "No_of_reviews": 334,
        "Rating": 4.5,
        "Phone": "",
        "Zip_code": "10010",
        "Cuisine": "Italian"
    },
    {
        "insertedAtTimestamp": "2023-10-12T12:21:34.149634",
        "Business_ID": "W5RSIwNKBa7k0jeAs5KDYg",
        "Name": "Mei Jin Ramen",
        "Address": "1574 2nd Ave, New York, NY 10028",
        "Latitude": 40.775049,
        "Longitude": -73.953553,
        "No_of_reviews": 896,
        "Rating": 4.0,
        "Phone": "+12123272800",
        "Zip_code": "10028",
        "Cuisine": "Italian"
    },
    {
        "insertedAtTimestamp": "2023-10-12T12:21:34.153637",
        "Business_ID": "Q23LvHPuC9ajSbMEt8xoUw",
        "Name": "Lucky Cat",
        "Address": "232 E 53rd St, New York, NY 10022",
        "Latitude": 40.757017,
        "Longitude": -73.968242,
        "No_of_reviews": 426,
        "Rating": 4.0,
        "Phone": "+12128385333",
        "Zip_code": "10022",
        "Cuisine": "Italian"
    },
    {
        "insertedAtTimestamp": "2023-10-12T12:21:34.153637",
        "Business_ID": "wGFSTTB6b4MHJJUzBnVJeg",
        "Name": "Top Thai Greenwich",
        "Address": "235 Sullivan St, New York, NY 10012",
        "Latitude": 40.729771,
        "Longitude": -73.999392,
        "No_of_reviews": 1899,
        "Rating": 4.5,
        "Phone": "+16467264418",
        "Zip_code": "10012",
        "Cuisine": "Italian"
    },
    {
        "insertedAtTimestamp": "2023-10-12T12:21:34.157290",
        "Business_ID": "a-Bq_yXFVk2PptoWpmry3w",
        "Name": "Pye Boat Noodle",
        "Address": "35-13 Broadway, Astoria, NY 11106",
        "Latitude": 40.76043,
        "Longitude": -73.92152,
        "No_of_reviews": 1042,
        "Rating": 4.5,
        "Phone": "+17186852329",
        "Zip_code": "11106",
        "Cuisine": "Italian"
    },
    {
        "insertedAtTimestamp": "2023-10-12T12:21:34.159278",
        "Business_ID": "MhceeLrM2_3mcKw5EGLY6A",
        "Name": "Pure Thai Cookhouse",
        "Address": "766 9th Ave, New York, NY 10019",
        "Latitude": 40.764291,
        "Longitude": -73.988159,
        "No_of_reviews": 2833,
        "Rating": 4.0,
        "Phone": "+12125810999",
        "Zip_code": "10019",
        "Cuisine": "Italian"
    },
    {
        "insertedAtTimestamp": "2023-10-12T12:21:34.160277",
        "Business_ID": "haK6aVs_oIUqwOn0LVZlRA",
        "Name": "Turkuaz Restaurant",
        "Address": "310 West 53rd St, New York, NY 10019",
        "Latitude": 40.7643988,
        "Longitude": -73.9855199,
        "No_of_reviews": 222,
        "Rating": 4.5,
        "Phone": "+12122655500",
        "Zip_code": "10019",
        "Cuisine": "Italian"
    },
    {
        "insertedAtTimestamp": "2023-10-12T12:21:34.160277",
        "Business_ID": "wSGZA3DOFSUvALZRKCM_Sw",
        "Name": "Tanoshi Sushi Sake Bar",
        "Address": "1372 York Ave, New York, NY 10021",
        "Latitude": 40.767568,
        "Longitude": -73.952815,
        "No_of_reviews": 864,
        "Rating": 4.5,
        "Phone": "+19172658254",
        "Zip_code": "10021",
        "Cuisine": "Italian"
    },
    {
        "insertedAtTimestamp": "2023-10-12T12:21:34.161281",
        "Business_ID": "NXg-oNpx0GYNiErdHb8L5A",
        "Name": "Awesum Dimsum",
        "Address": "160 E 23rd St, New York, NY 10010",
        "Latitude": 40.7388534,
        "Longitude": -73.98367370212858,
        "No_of_reviews": 716,
        "Rating": 4.5,
        "Phone": "+16469983313",
        "Zip_code": "10010",
        "Cuisine": "Italian"
    },
    {
        "insertedAtTimestamp": "2023-10-12T12:21:34.161281",
        "Business_ID": "CqQ2Og9kf-LhlUWtODalCQ",
        "Name": "Blue Ribbon Sushi Bar & Grill - Columbus Circle",
        "Address": "308 W 58th St, 6 Columbus Hotel, New York, NY 10019",
        "Latitude": 40.7675589,
        "Longitude": -73.9831177,
        "No_of_reviews": 861,
        "Rating": 4.0,
        "Phone": "+12123970404",
        "Zip_code": "10019",
        "Cuisine": "Italian"
    },
    {
        "insertedAtTimestamp": "2023-10-12T12:21:34.161281",
        "Business_ID": "gXnC_aZR09BvqEQKGKFjBg",
        "Name": "BCD Tofu House",
        "Address": "5 W 32nd St, New York, NY 10001",
        "Latitude": 40.747697348826584,
        "Longitude": -73.98606853079899,
        "No_of_reviews": 2463,
        "Rating": 4.0,
        "Phone": "+12129671900",
        "Zip_code": "10001",
        "Cuisine": "Italian"
    },
    {
        "insertedAtTimestamp": "2023-10-12T12:21:34.162278",
        "Business_ID": "ehUuSk5gPTCQmwS_ubgKRA",
        "Name": "Upstate Craft Beer & Oyster Bar",
        "Address": "95 1st Ave, New York, NY 10003",
        "Latitude": 40.726373,
        "Longitude": -73.986557,
        "No_of_reviews": 2081,
        "Rating": 4.5,
        "Phone": "+16467915400",
        "Zip_code": "10003",
        "Cuisine": "Italian"
    },
    {
        "insertedAtTimestamp": "2023-10-12T12:21:35.306513",
        "Business_ID": "UB1mGugr1pvgUUP1eTNXrg",
        "Name": "Stone Bridge Pizza & Salad",
        "Address": "16 E 41st St, New York, NY 10017",
        "Latitude": 40.75225,
        "Longitude": -73.98061,
        "No_of_reviews": 332,
        "Rating": 4.5,
        "Phone": "+16467915690",
        "Zip_code": "10017",
        "Cuisine": "Italian"
    },
    {
        "insertedAtTimestamp": "2023-10-12T12:21:35.306513",
        "Business_ID": "Jhx4OoFjXFp0YxqbW0KQog",
        "Name": "Butter Midtown",
        "Address": "70 W 45th St, New York, NY 10036",
        "Latitude": 40.7562781,
        "Longitude": -73.9823303,
        "No_of_reviews": 1175,
        "Rating": 3.5,
        "Phone": "+16467191364",
        "Zip_code": "10036",
        "Cuisine": "Italian"
    },
    {
        "insertedAtTimestamp": "2023-10-12T12:21:35.306513",
        "Business_ID": "hzPBADaUBQEL30MGrvKsww",
        "Name": "Il Tinello Ristorante Italiano",
        "Address": "16 W 56th St, New York, NY 10019",
        "Latitude": 40.76256,
        "Longitude": -73.97566,
        "No_of_reviews": 334,
        "Rating": 4.5,
        "Phone": "+12122454388",
        "Zip_code": "10019",
        "Cuisine": "Italian"
    },
    {
        "insertedAtTimestamp": "2023-10-12T12:21:35.307505",
        "Business_ID": "432F7ulSgnm1fNyefqgrNw",
        "Name": "Strip House Steakhouse",
        "Address": "15 W 44th St, New York, NY 10036",
        "Latitude": 40.7552982092827,
        "Longitude": -73.98068987648,
        "No_of_reviews": 640,
        "Rating": 4.0,
        "Phone": "+12123365454",
        "Zip_code": "10036",
        "Cuisine": "Italian"
    },
    {
        "insertedAtTimestamp": "2023-10-12T12:21:35.307505",
        "Business_ID": "js7pXIr0lGoTd_6HPMPckg",
        "Name": "Okdongsik",
        "Address": "13 E 30th St, New York, NY 10016",
        "Latitude": 40.74561,
        "Longitude": -73.98543,
        "No_of_reviews": 216,
        "Rating": 4.5,
        "Phone": "",
        "Zip_code": "10016",
        "Cuisine": "Italian"
    },
    {
        "insertedAtTimestamp": "2023-10-12T12:21:35.307505",
        "Business_ID": "oY-tooKEm8F-6Il1JOQzKg",
        "Name": "Souvlaki GR Midtown ",
        "Address": "162 W 56th St, New York, NY 10019",
        "Latitude": 40.76465,
        "Longitude": -73.98029,
        "No_of_reviews": 800,
        "Rating": 4.0,
        "Phone": "+12129747482",
        "Zip_code": "10019",
        "Cuisine": "Italian"
    },
    {
        "insertedAtTimestamp": "2023-10-12T12:21:35.308507",
        "Business_ID": "9o4y3IqpFDaj8FddJ6oi2A",
        "Name": "Clement",
        "Address": "700 5th Ave, New York, NY 10019",
        "Latitude": 40.7616673527305,
        "Longitude": -73.9755601503319,
        "No_of_reviews": 160,
        "Rating": 4.0,
        "Phone": "+12129033918",
        "Zip_code": "10019",
        "Cuisine": "Italian"
    },
    {
        "insertedAtTimestamp": "2023-10-12T12:21:35.308507",
        "Business_ID": "J9UA6rzI5WW_cDGjwDnF5g",
        "Name": "Tsuru Ton Tan",
        "Address": "21 E 16th St, New York, NY 10003",
        "Latitude": 40.73678,
        "Longitude": -73.9910699,
        "No_of_reviews": 2314,
        "Rating": 4.0,
        "Phone": "+12129891000",
        "Zip_code": "10003",
        "Cuisine": "Italian"
    },
    {
        "insertedAtTimestamp": "2023-10-12T12:21:35.308507",
        "Business_ID": "orYWYTk6kNK1YODsADk_tg",
        "Name": "The Jin",
        "Address": "856 10th Ave, New York, NY 10019",
        "Latitude": 40.76857,
        "Longitude": -73.98874,
        "No_of_reviews": 514,
        "Rating": 4.5,
        "Phone": "+12122233488",
        "Zip_code": "10019",
        "Cuisine": "Italian"
    },
    {
        "insertedAtTimestamp": "2023-10-12T12:21:35.308507",
        "Business_ID": "rp8S7scxOkVVeG7dNneMGQ",
        "Name": "L'Artusi",
        "Address": "228 W 10th St, New York, NY 10014",
        "Latitude": 40.73372,
        "Longitude": -74.00513,
        "No_of_reviews": 2367,
        "Rating": 4.5,
        "Phone": "+12122555757",
        "Zip_code": "10014",
        "Cuisine": "Italian"
    },
    {
        "insertedAtTimestamp": "2023-10-12T12:21:35.309507",
        "Business_ID": "bZQryeTD6hIsT6lSUxzSSw",
        "Name": "Hanoi House",
        "Address": "119 Saint Marks Pl, New York, NY 10009",
        "Latitude": 40.727066,
        "Longitude": -73.983505,
        "No_of_reviews": 730,
        "Rating": 4.5,
        "Phone": "+12129955010",
        "Zip_code": "10009",
        "Cuisine": "Italian"
    },
    {
        "insertedAtTimestamp": "2023-10-12T12:21:35.309507",
        "Business_ID": "KHdYPT0jUnUGdHGaY73mxg",
        "Name": "Sukhumvit 51",
        "Address": "224 E 51st St, New York, NY 10022",
        "Latitude": 40.7559139831703,
        "Longitude": -73.9693867939228,
        "No_of_reviews": 832,
        "Rating": 4.0,
        "Phone": "+12128888894",
        "Zip_code": "10022",
        "Cuisine": "Italian"
    },
    {
        "insertedAtTimestamp": "2023-10-12T12:21:35.309507",
        "Business_ID": "7ZecxKox2SiVtsNDWphJZQ",
        "Name": "Limani",
        "Address": "45 Rockerfeller Plz, New York, NY 10111",
        "Latitude": 40.7593809598193,
        "Longitude": -73.9778140767212,
        "No_of_reviews": 534,
        "Rating": 4.0,
        "Phone": "+12128589200",
        "Zip_code": "10111",
        "Cuisine": "Italian"
    },
    {
        "insertedAtTimestamp": "2023-10-12T12:21:35.310506",
        "Business_ID": "0y6eQXDw2RDLuBwkY02xGA",
        "Name": "Aretsky's Patroon",
        "Address": "160 E 46th St, New York, NY 10017",
        "Latitude": 40.7533599,
        "Longitude": -73.9732416,
        "No_of_reviews": 254,
        "Rating": 4.0,
        "Phone": "+12128837373",
        "Zip_code": "10017",
        "Cuisine": "Italian"
    },
    {
        "insertedAtTimestamp": "2023-10-12T12:21:35.310506",
        "Business_ID": "EDucGBSfQ0YIbxdHS-KnCg",
        "Name": "Sagaponack",
        "Address": "4 W 22nd St, New York, NY 10010",
        "Latitude": 40.741019,
        "Longitude": -73.990692,
        "No_of_reviews": 274,
        "Rating": 4.5,
        "Phone": "+12122292226",
        "Zip_code": "10010",
        "Cuisine": "Italian"
    },
    {
        "insertedAtTimestamp": "2023-10-12T12:21:35.310506",
        "Business_ID": "pC_QwLpeL2Enk4hBgDcRqQ",
        "Name": "Da Marino",
        "Address": "220 W 49th St, New York, NY 10019",
        "Latitude": 40.76102,
        "Longitude": -73.98526,
        "No_of_reviews": 679,
        "Rating": 4.0,
        "Phone": "+12125416601",
        "Zip_code": "10019",
        "Cuisine": "Italian"
    },
    {
        "insertedAtTimestamp": "2023-10-12T12:21:35.311506",
        "Business_ID": "gvOe1TLb8hZgx0naC9LYpw",
        "Name": "Sei Less",
        "Address": "156 W 38th St, New York, NY 10018",
        "Latitude": 40.75314,
        "Longitude": -73.98814,
        "No_of_reviews": 271,
        "Rating": 4.0,
        "Phone": "+12125862675",
        "Zip_code": "10018",
        "Cuisine": "Italian"
    },
    {
        "insertedAtTimestamp": "2023-10-12T12:21:35.311506",
        "Business_ID": "bL6gcUWgFt7mOZYT_FaGSg",
        "Name": "Shake Shack Theater District",
        "Address": "691 8th Ave, New York, NY 10036",
        "Latitude": 40.758412133689,
        "Longitude": -73.98921899751232,
        "No_of_reviews": 3131,
        "Rating": 4.0,
        "Phone": "+16464350135",
        "Zip_code": "10036",
        "Cuisine": "Italian"
    },
    {
        "insertedAtTimestamp": "2023-10-12T12:21:35.311506",
        "Business_ID": "DEp-9JVnKN7eTb9A_mUlfA",
        "Name": "Zou Zou\u2019s",
        "Address": "385 9th Ave, Ste 85, New York, NY 10001",
        "Latitude": 40.75294111375021,
        "Longitude": -73.99872428597398,
        "No_of_reviews": 292,
        "Rating": 4.0,
        "Phone": "+12123808585",
        "Zip_code": "10001",
        "Cuisine": "Italian"
    },
    {
        "insertedAtTimestamp": "2023-10-12T12:21:35.312508",
        "Business_ID": "V3dHB6xAdd8_dH7t481PAw",
        "Name": "Steak Frites Bistro",
        "Address": "496 9th Ave, New York, NY 10018",
        "Latitude": 40.75559939381978,
        "Longitude": -73.994415672668,
        "No_of_reviews": 112,
        "Rating": 4.5,
        "Phone": "+19296145070",
        "Zip_code": "10018",
        "Cuisine": "Italian"
    },
    {
        "insertedAtTimestamp": "2023-10-12T12:21:35.312508",
        "Business_ID": "U0deo-JRQmHrru0uSf6QWA",
        "Name": "Virgil's Real BBQ - New York",
        "Address": "152 W 44th St, Times Square, New York, NY 10036",
        "Latitude": 40.75685,
        "Longitude": -73.9851,
        "No_of_reviews": 1869,
        "Rating": 3.5,
        "Phone": "+12129219494",
        "Zip_code": "10036",
        "Cuisine": "Italian"
    },
    {
        "insertedAtTimestamp": "2023-10-12T12:21:35.312508",
        "Business_ID": "wjIyCBEpCG_HRp8veiI0YQ",
        "Name": "Ootoya Times Square",
        "Address": "141 W 41st St, New York, NY 10036",
        "Latitude": 40.754924,
        "Longitude": -73.985945,
        "No_of_reviews": 1106,
        "Rating": 4.0,
        "Phone": "+12127040833",
        "Zip_code": "10036",
        "Cuisine": "Italian"
    },
    {
        "insertedAtTimestamp": "2023-10-12T12:21:35.312508",
        "Business_ID": "9mWw-sK4RjSPYRHQN_S9ZQ",
        "Name": "Tradisyon",
        "Address": "790 9th Ave, New York, NY 10019",
        "Latitude": 40.76491,
        "Longitude": -73.987537,
        "No_of_reviews": 262,
        "Rating": 4.5,
        "Phone": "+16468666900",
        "Zip_code": "10019",
        "Cuisine": "Italian"
    },
    {
        "insertedAtTimestamp": "2023-10-12T12:21:35.313508",
        "Business_ID": "AsN3B_FjIDxjISs9K_d_ZQ",
        "Name": "Peachy Keen",
        "Address": "325 W 44th St, New York, NY 10036",
        "Latitude": 40.75919366932837,
        "Longitude": -73.98975277259541,
        "No_of_reviews": 494,
        "Rating": 4.5,
        "Phone": "+12122452337",
        "Zip_code": "10036",
        "Cuisine": "Italian"
    },
    {
        "insertedAtTimestamp": "2023-10-12T12:21:35.313508",
        "Business_ID": "GuzlMBKNoClNx5I1-x-DDg",
        "Name": "53 NYC",
        "Address": "53 W 53rd St, New York, NY 10019",
        "Latitude": 40.76179318437133,
        "Longitude": -73.9780863,
        "No_of_reviews": 112,
        "Rating": 4.0,
        "Phone": "+16465353994",
        "Zip_code": "10019",
        "Cuisine": "Italian"
    },
    {
        "insertedAtTimestamp": "2023-10-12T12:21:35.314511",
        "Business_ID": "bTyyPU8A4pz9dieLSZPMdA",
        "Name": "Le Rivage",
        "Address": "340 W 46th St, New York, NY 10036",
        "Latitude": 40.760238,
        "Longitude": -73.98959,
        "No_of_reviews": 597,
        "Rating": 4.0,
        "Phone": "+12127657374",
        "Zip_code": "10036",
        "Cuisine": "Italian"
    },
    {
        "insertedAtTimestamp": "2023-10-12T12:21:35.314511",
        "Business_ID": "BPErPpKSNluwcjbKRgze3w",
        "Name": "Xi'an Famous Foods",
        "Address": "328 E 78th St, New York, NY 10075",
        "Latitude": 40.77197,
        "Longitude": -73.95452,
        "No_of_reviews": 678,
        "Rating": 4.0,
        "Phone": "+12127862068",
        "Zip_code": "10075",
        "Cuisine": "Italian"
    },
    {
        "insertedAtTimestamp": "2023-10-12T12:21:35.315510",
        "Business_ID": "BQRfaq0U75B5EEblBZ2Aqg",
        "Name": "Bacall's",
        "Address": "220 West 44th St, New York, NY 10036",
        "Latitude": 40.7576,
        "Longitude": -73.98693,
        "No_of_reviews": 434,
        "Rating": 4.0,
        "Phone": "+12129442474",
        "Zip_code": "10036",
        "Cuisine": "Italian"
    },
    {
        "insertedAtTimestamp": "2023-10-12T12:21:35.315510",
        "Business_ID": "DPDznXYX5DBLBASKfxQ-DQ",
        "Name": "Totto Ramen Hell's Kitchen",
        "Address": "464 W 51st St, New York, NY 10019",
        "Latitude": 40.765055,
        "Longitude": -73.991001,
        "No_of_reviews": 1203,
        "Rating": 4.0,
        "Phone": "+16465969056",
        "Zip_code": "10019",
        "Cuisine": "Italian"
    },
    {
        "insertedAtTimestamp": "2023-10-12T12:21:35.315510",
        "Business_ID": "iq9_CMtUT1SwGcEL8fSDNQ",
        "Name": "R Lounge at Two Times Square",
        "Address": "Two Times Square, 714 Seventh Avenue at W. 48th Street, New York, NY 10036",
        "Latitude": 40.759683705851,
        "Longitude": -73.9845943450927,
        "No_of_reviews": 370,
        "Rating": 4.0,
        "Phone": "+12122615114",
        "Zip_code": "10036",
        "Cuisine": "Italian"
    },
    {
        "insertedAtTimestamp": "2023-10-12T12:21:35.316507",
        "Business_ID": "aS8QlNmESvm2ZLsE9D-c3g",
        "Name": "Aunt Bernie's Bar and Jardin",
        "Address": "513 3rd Ave, New York, NY 10016",
        "Latitude": 40.74594917175733,
        "Longitude": -73.9775669,
        "No_of_reviews": 40,
        "Rating": 5.0,
        "Phone": "+12127791800",
        "Zip_code": "10016",
        "Cuisine": "Italian"
    },
    {
        "insertedAtTimestamp": "2023-10-12T12:21:35.316507",
        "Business_ID": "1jAB_uaI8-P_wSqOo2S3KQ",
        "Name": "Mazu Szechuan",
        "Address": "495 3rd Ave, New York, NY 10016",
        "Latitude": 40.745234,
        "Longitude": -73.97812,
        "No_of_reviews": 126,
        "Rating": 4.5,
        "Phone": "+16466093388",
        "Zip_code": "10016",
        "Cuisine": "Italian"
    },
    {
        "insertedAtTimestamp": "2023-10-12T12:21:35.316507",
        "Business_ID": "sBL7J7s4Rnul40-MB0hXbA",
        "Name": "Perrine",
        "Address": "2 E 61st Street At Fifth Ave, Ground Floor, New York City, NY 10065",
        "Latitude": 40.7653271962541,
        "Longitude": -73.97199900859833,
        "No_of_reviews": 119,
        "Rating": 4.0,
        "Phone": "+12129408195",
        "Zip_code": "10065",
        "Cuisine": "Italian"
    },
    {
        "insertedAtTimestamp": "2023-10-12T12:21:35.316507",
        "Business_ID": "yGpPYyu3s8iVNuO0ktqsDw",
        "Name": "Birdland",
        "Address": "315 W 44th St, Ste 5402, New York, NY 10036",
        "Latitude": 40.758968,
        "Longitude": -73.989617,
        "No_of_reviews": 411,
        "Rating": 4.0,
        "Phone": "+12125813080",
        "Zip_code": "10036",
        "Cuisine": "Italian"
    },
    {
        "insertedAtTimestamp": "2023-10-12T12:21:35.317508",
        "Business_ID": "MKYhiSeXjahxh9O4Gqnimw",
        "Name": "Grace Street",
        "Address": "17 W 32nd St, New York, NY 10001",
        "Latitude": 40.7478576793883,
        "Longitude": -73.9865590631962,
        "No_of_reviews": 3388,
        "Rating": 4.0,
        "Phone": "+19177452125",
        "Zip_code": "10001",
        "Cuisine": "Italian"
    },
    {
        "insertedAtTimestamp": "2023-10-12T12:21:35.317508",
        "Business_ID": "DNSFvZtdsqkaidmFSpm-Jw",
        "Name": "Soba Noodle Azuma",
        "Address": "251 W 55th St, New York, NY 10019",
        "Latitude": 40.76526,
        "Longitude": -73.9832,
        "No_of_reviews": 411,
        "Rating": 4.0,
        "Phone": "+19172620540",
        "Zip_code": "10019",
        "Cuisine": "Italian"
    }
]